[{"name":"Coleman Regional Center","city":"Nashville","zip":"37211","number":1,"state":"TN","location":["-86.743742","36.111914"],"address":"384 Thompson Lane"},{"name":"East Regional Center","city":"Nashville","zip":"37206","number":2,"state":"TN","location":["-86.760417","36.17289"],"address":"600 Woodland Street"},{"name":"Hadley Regional","city":"Nashville","zip":"37208","number":3,"state":"TN","location":["-86.820489","36.166715"],"address":"1037 28th Avenue North"},{"name":"Hartman Regional Center","city":"Nashville","zip":"37218","number":4,"state":"TN","location":["-86.827367","36.208036"],"address":"2801 Tucker Road"},{"name":"McCabe Regional Center","city":"Nashville","zip":"37209","number":5,"state":"TN","location":["-86.841981","36.141595"],"address":"101 46th Avenue North"},{"name":"Sevier Regional Center","city":"Nashville","zip":"37204","number":6,"state":"TN","location":["-86.787399","36.119345"],"address":"3021 Lealand Lane"},{"name":"Southeast Community Center","city":"Antioch","zip":"37013","number":7,"state":"TN","location":["-86.641191","36.060312"],"address":"5260 Hickory Hollow Parkway"},{"name":"Antioch Community Center","city":"Antioch","zip":"37013","number":8,"state":"TN","location":["-86.672911","36.055703"],"address":"5023 Blue Hole Road"},{"name":"Bellevue Community Center","city":"Nashville","zip":"37221","number":9,"state":"TN","location":["-86.934547","36.072052"],"address":"656 Colice Jeanne Road"},{"name":"Cleveland Community Center","city":"Nashville","zip":"37207","number":10,"state":"TN","location":["-86.761083","36.190404"],"address":"North 6th Street"},{"name":"Easley Center at Rose Park","city":"Nashville","zip":"37203","number":11,"state":"TN","location":["-86.783224","36.143275"],"address":"1000 Edgehill Avenue"},{"name":"Elizabeth Senior Center","city":"Nashville","zip":"37208","number":12,"state":"TN","location":["-86.802446","36.178367"],"address":"1701 Arthur Avenue"},{"name":"Hermitage Community Center","city":"Hermitage","zip":"37076","number":13,"state":"TN","location":["-86.615553","36.177779"],"address":"3720 James Kay Lane"},{"name":"Kirkpatrick Community Center","city":"Nashville","zip":"37206","number":14,"state":"TN","location":["-86.753587","36.169353"],"address":"620 South 9th Street"},{"name":"Looby Community Center","city":"Nashville","zip":"37228","number":15,"state":"TN","location":["-86.798085","36.184768"],"address":"2301 Metro Center Blvd."},{"name":"Madison Community Center","city":"Madison","zip":"37115","number":16,"state":"TN","location":["-86.701004","36.265972"],"address":"510 Cumberland Avenue"},{"name":"McFerrin Community Center","city":"Nashville","zip":"37207","number":17,"state":"TN","location":["-86.768613","36.1827"],"address":"310 Grace Street"},{"name":"Morgan Park Community Center","city":"Nashville","zip":"37208","number":18,"state":"TN","location":["-86.790481","36.180341"],"address":"411 Hume Street"},{"name":"Napier Community Center","city":"Nashville","zip":"37210","number":19,"state":"TN","location":["-86.756871","36.150695"],"address":"73 Fairfield Street"},{"name":"Old Hickory Community Center","city":"Old Hickory","zip":"37138","number":20,"state":"TN","location":["-86.649685","36.264973"],"address":"1050 Donelson Drive"},{"name":"Paradise Ridge","city":"Joelton","zip":"37080","number":21,"state":"TN","location":["-86.859674","36.33738"],"address":"3000 Morgan Road"},{"name":"Parkwood Community Center","city":"Nashville","zip":"37207","number":22,"state":"TN","location":["-86.771357","36.23505"],"address":"3220 Vailview Drive"},{"name":"Shelby Community Center","city":"Nashville","zip":"37206","number":23,"state":"TN","location":["-86.736009","36.169155"],"address":"South 20th Street at Shelby Avenue"},{"name":"South Inglewood Community Center","city":"Nashville","zip":"37216","number":24,"state":"TN","location":["-86.727004","36.196504"],"address":"1625 Rebecca Street"},{"name":"Watkins Community Center","city":"Nashville","zip":"37203","number":25,"state":"TN","location":["-86.800192","36.161768"],"address":"616 17th Avenue North"},{"name":"West Community Center","city":"Nashville","zip":"37209","number":26,"state":"TN","location":["-86.863146","36.162271"],"address":"6105 Morrow Road"}]
